[
  {
    "id": 1,
    "heading": "Рестораны и кафе",
    "bodying": [
      {
        "name": "Банкетные залы"
      },
      {
        "name": "Здоровое питание - кафе"
      },
      {
        "name": "Кафе"
      },
      {
        "name": "Бары"
      },
      {
        "name": "Кейтеринг - кофе-брейки"
      },
      {
        "name": "фуршеты"
      },
      {
        "name": "обеды"
      },
      {
        "name": "Общественное питание"
      },
      {
        "name": "Рестораны"
      },
      {
        "name": "Фитобары"
      },
      {
        "name": "Чайханы"
      }
    ],
    "location": {
      "town": "Ташкент",
      "district": "Юнусабад",
      "street": "Улица Амира Темура"
    },
    "icon": "17.png",
    "rate": 2
  },
  {
    "id": 2,
    "heading": "Пищевое производство",
    "bodying": [
      {
        "name": "Банкетные залы"
      },
      {
        "name": "Здоровое питание - кафе"
      },
      {
        "name": "Кафе"
      },
      {
        "name": "Бары"
      }
    ],
    "location": {
      "town": "Ташкент",
      "district": "Юнусабад",
      "street": "Улица Амира Темура"
    },
    "icon": "24.png",
    "rate": 3
  },
  {
    "id": 3,
    "heading": "Нефтегазовая отрасль",
    "bodying": [
      {
        "name": "Банкетные залы"
      },
      {
        "name": "Здоровое питание - кафе"
      },
      {
        "name": "Кафе"
      },
      {
        "name": "Бары"
      },
      {
        "name": "Бары"
      }
    ],
    "location": {
      "town": "Ташкент",
      "district": "Юнусабад",
      "street": "Улица Амира Темура"
    },
    "icon": "22.png",
    "rate": 5
  },
  {
    "id": 4,
    "heading": "Компьютеры и оргтехника",
    "bodying": [
      {
        "name": "Банкетные залы"
      },
      {
        "name": "Здоровое питание - кафе"
      },
      {
        "name": "Кафе"
      },
      {
        "name": "Бары"
      },
      {
        "name": "Бары"
      }
    ],
    "location": {
      "town": "Ташкент",
      "district": "Юнусабад",
      "street": "Улица Амира Темура"
    },
    "icon": "11.png",
    "rate": 5
  },
  {
    "id": 5,
    "heading": "Рестораны и кафе",
    "bodying": [
      {
        "name": "Банкетные залы"
      },
      {
        "name": "Здоровое питание - кафе"
      },
      {
        "name": "Кафе"
      },
      {
        "name": "Бары"
      },
      {
        "name": "Бары"
      }
    ],
    "location": {
      "town": "Ташкент",
      "district": "Юнусабад",
      "street": "Улица Амира Темура"
    },
    "icon": "4.png",
    "rate": 1
  },
  {
    "id": 6,
    "heading": "Автомобили",
    "bodying": [
      {
        "name": "Банкетные залы"
      },
      {
        "name": "Здоровое питание - кафе"
      },
      {
        "name": "Кафе"
      },
      {
        "name": "Бары"
      },
      {
        "name": "Бары"
      }
    ],
    "location": {
      "town": "Ташкент",
      "district": "Юнусабад",
      "street": "Улица Амира Темура"
    },
    "icon": "8.png",
    "rate": 0
  },
  {
    "id": 7,
    "heading": "Медицина",
    "bodying": [
      {
        "name": "Банкетные залы"
      },
      {
        "name": "Здоровое питание - кафе"
      },
      {
        "name": "Кафе"
      },
      {
        "name": "Бары"
      },
      {
        "name": "Бары"
      }
    ],
    "location": {
      "town": "Ташкент",
      "district": "Юнусабад",
      "street": "Улица Амира Темура"
    },
    "icon": "10.png",
    "rate": 1
  },
  {
    "id": 8,
    "heading": "Сельское хозяйство",
    "bodying": [
      {
        "name": "Банкетные залы"
      },
      {
        "name": "Здоровое питание - кафе"
      },
      {
        "name": "Кафе"
      },
      {
        "name": "Бары"
      },
      {
        "name": "Бары"
      }
    ],
    "location": {
      "town": "Ташкент",
      "district": "Юнусабад",
      "street": "Улица Амира Темура"
    },
    "icon": "23.png",
    "rate": 4
  },
  {
    "id": 9,
    "heading": "Автомобили",
    "bodying": [
      {
        "name": "Банкетные залы"
      },
      {
        "name": "Здоровое питание - кафе"
      },
      {
        "name": "Кафе"
      },
      {
        "name": "Бары"
      },
      {
        "name": "Бары"
      }
    ],
    "location": {
      "town": "Ташкент",
      "district": "Юнусабад",
      "street": "Улица Амира Темура"
    },
    "icon": "8.png",
    "rate": 5
  },
  {
    "id": 10,
    "heading": "Медицина",
    "bodying": [
      {
        "name": "Банкетные залы"
      },
      {
        "name": "Здоровое питание - кафе"
      },
      {
        "name": "Кафе"
      },
      {
        "name": "Бары"
      },
      {
        "name": "Бары"
      }
    ],
    "location": {
      "town": "Ташкент",
      "district": "Юнусабад",
      "street": "Улица Амира Темура"
    },
    "icon": "10.png",
    "rate": 1
  },
  {
    "id": 11,
    "heading": "Сельское хозяйство",
    "bodying": [
      {
        "name": "Банкетные залы"
      },
      {
        "name": "Здоровое питание - кафе"
      },
      {
        "name": "Кафе"
      },
      {
        "name": "Бары"
      },
      {
        "name": "Бары"
      }
    ],
    "location": {
      "town": "Ташкент",
      "district": "Юнусабад",
      "street": "Улица Амира Темура"
    },
    "icon": "23.png",
    "rate": 0
  }
]